{"type":"FeatureCollection","name":"点","features":[{"type":"Feature","properties":{"NAME":"蓟州区","QUHUADAIMA":"120119","Location":6,"Alignment":1},"geometry":{"type":"Point","coordinates":[117.53019528300706,40.176191226944148]}},{"type":"Feature","properties":{"NAME":"河西区","QUHUADAIMA":"120103","Location":8,"Alignment":2},"geometry":{"type":"Point","coordinates":[117.34590271015077,39.237703309642882]}},{"type":"Feature","properties":{"NAME":"南开区","QUHUADAIMA":"120104","Location":1,"Alignment":3},"geometry":{"type":"Point","coordinates":[117.27232390899641,39.2664178570255]}},{"type":"Feature","properties":{"NAME":"河东区","QUHUADAIMA":"120102","Location":6,"Alignment":1},"geometry":{"type":"Point","coordinates":[117.37375612883152,39.254854746820115]}},{"type":"Feature","properties":{"NAME":"河北区","QUHUADAIMA":"120105","Location":3,"Alignment":1},"geometry":{"type":"Point","coordinates":[117.31961111959602,39.276216816354378]}},{"type":"Feature","properties":{"NAME":"红桥区","QUHUADAIMA":"120106","Location":2,"Alignment":2},"geometry":{"type":"Point","coordinates":[117.27331191771197,39.295654025066447]}},{"type":"Feature","properties":{"NAME":"北辰区","QUHUADAIMA":"120113","Location":3,"Alignment":1},"geometry":{"type":"Point","coordinates":[117.25388974442267,39.349855490537308]}},{"type":"Feature","properties":{"NAME":"武清区","QUHUADAIMA":"120114","Location":2,"Alignment":2},"geometry":{"type":"Point","coordinates":[117.16628748177129,39.511727480772592]}},{"type":"Feature","properties":{"NAME":"津南区","QUHUADAIMA":"120112","Location":8,"Alignment":2},"geometry":{"type":"Point","coordinates":[117.50855759740284,39.118706428507473]}},{"type":"Feature","properties":{"NAME":"东丽区","QUHUADAIMA":"120110","Location":6,"Alignment":1},"geometry":{"type":"Point","coordinates":[117.43413327790184,39.212274740626242]}},{"type":"Feature","properties":{"NAME":"宝坻区","QUHUADAIMA":"120115","Location":9,"Alignment":1},"geometry":{"type":"Point","coordinates":[117.4317500125793,39.8442442247506]}},{"type":"Feature","properties":{"NAME":"和平区","QUHUADAIMA":"120101","Location":4,"Alignment":3},"geometry":{"type":"Point","coordinates":[117.33732279696153,39.244037687458338]}},{"type":"Feature","properties":{"NAME":"西青区","QUHUADAIMA":"120111","Location":7,"Alignment":2},"geometry":{"type":"Point","coordinates":[117.13628732936792,39.269473746244479]}},{"type":"Feature","properties":{"NAME":"滨海新区","QUHUADAIMA":"120116","Location":4,"Alignment":3},"geometry":{"type":"Point","coordinates":[117.83272732575344,39.134843585938249]}},{"type":"Feature","properties":{"NAME":"宁河区","QUHUADAIMA":"120117","Location":4,"Alignment":3},"geometry":{"type":"Point","coordinates":[117.94775806758422,39.457540753469452]}},{"type":"Feature","properties":{"NAME":"静海区","QUHUADAIMA":"120118","Location":4,"Alignment":3},"geometry":{"type":"Point","coordinates":[117.09042559000586,39.075737861782265]}}]}