{"type":"FeatureCollection","name":"点","features":[{"type":"Feature","properties":{"NAME":"哈尔滨市","QUHUADAIMA":"230100","Location":6,"Alignment":1},"geometry":{"type":"Point","coordinates":[126.65574521970157,45.931907508377734]}},{"type":"Feature","properties":{"NAME":"牡丹江市","QUHUADAIMA":"231000","Location":6,"Alignment":1},"geometry":{"type":"Point","coordinates":[129.75876273266093,44.686903706631988]}},{"type":"Feature","properties":{"NAME":"七台河市","QUHUADAIMA":"230900","Location":2,"Alignment":2},"geometry":{"type":"Point","coordinates":[131.05803439256783,45.914215691545245]}},{"type":"Feature","properties":{"NAME":"鸡西市","QUHUADAIMA":"230300","Location":3,"Alignment":1},"geometry":{"type":"Point","coordinates":[131.08607042921395,45.419759998009511]}},{"type":"Feature","properties":{"NAME":"大庆市","QUHUADAIMA":"230600","Location":4,"Alignment":3},"geometry":{"type":"Point","coordinates":[125.22643681455523,46.716012809518666]}},{"type":"Feature","properties":{"NAME":"绥化市","QUHUADAIMA":"231200","Location":4,"Alignment":3},"geometry":{"type":"Point","coordinates":[127.10368642533548,46.764670116421314]}},{"type":"Feature","properties":{"NAME":"佳木斯市","QUHUADAIMA":"230800","Location":2,"Alignment":2},"geometry":{"type":"Point","coordinates":[130.48999154753915,46.93784149691065]}},{"type":"Feature","properties":{"NAME":"双鸭山市","QUHUADAIMA":"230500","Location":6,"Alignment":1},"geometry":{"type":"Point","coordinates":[131.2802877601041,46.768979653192481]}},{"type":"Feature","properties":{"NAME":"齐齐哈尔市","QUHUADAIMA":"230200","Location":2,"Alignment":2},"geometry":{"type":"Point","coordinates":[124.04950372104133,47.492277849812126]}},{"type":"Feature","properties":{"NAME":"伊春市","QUHUADAIMA":"230700","Location":9,"Alignment":1},"geometry":{"type":"Point","coordinates":[128.96371942920905,47.853457081109362]}},{"type":"Feature","properties":{"NAME":"鹤岗市","QUHUADAIMA":"230400","Location":3,"Alignment":1},"geometry":{"type":"Point","coordinates":[130.44281672378577,47.502025988353836]}},{"type":"Feature","properties":{"NAME":"黑河市","QUHUADAIMA":"231100","Location":7,"Alignment":3},"geometry":{"type":"Point","coordinates":[127.62275283113232,50.32424578691094]}}]}