{"type":"FeatureCollection","name":"点","features":[{"type":"Feature","properties":{"NAME":"崇明区","QUHUADAIMA":"310151","Location":6,"Alignment":1},"geometry":{"type":"Point","coordinates":[121.52627627607879,31.762280809293173]}},{"type":"Feature","properties":{"NAME":"宝山区","QUHUADAIMA":"310113","Location":7,"Alignment":3},"geometry":{"type":"Point","coordinates":[121.61198752584959,31.534241405894992]}},{"type":"Feature","properties":{"NAME":"金山区","QUHUADAIMA":"310116","Location":2,"Alignment":2},"geometry":{"type":"Point","coordinates":[121.46665499337202,30.874380251383979]}},{"type":"Feature","properties":{"NAME":"奉贤区","QUHUADAIMA":"310120","Location":6,"Alignment":1},"geometry":{"type":"Point","coordinates":[121.58075057162179,31.048964595926414]}},{"type":"Feature","properties":{"NAME":"嘉定区","QUHUADAIMA":"310114","Location":2,"Alignment":2},"geometry":{"type":"Point","coordinates":[121.3888745859368,31.510784614286884]}},{"type":"Feature","properties":{"NAME":"青浦区","QUHUADAIMA":"310118","Location":6,"Alignment":1},"geometry":{"type":"Point","coordinates":[121.23911745064743,31.278741391437332]}},{"type":"Feature","properties":{"NAME":"松江区","QUHUADAIMA":"310117","Location":6,"Alignment":1},"geometry":{"type":"Point","coordinates":[121.34915025804294,31.167399641391693]}},{"type":"Feature","properties":{"NAME":"闵行区","QUHUADAIMA":"310112","Location":6,"Alignment":1},"geometry":{"type":"Point","coordinates":[121.50540153657859,31.240116645840498]}},{"type":"Feature","properties":{"NAME":"徐汇区","QUHUADAIMA":"310104","Location":8,"Alignment":6},"geometry":{"type":"Point","coordinates":[121.56009550107083,31.319273442089166]}},{"type":"Feature","properties":{"NAME":"静安区","QUHUADAIMA":"310106","Location":2,"Alignment":2},"geometry":{"type":"Point","coordinates":[121.57100565313557,31.3590906078374]}},{"type":"Feature","properties":{"NAME":"长宁区","QUHUADAIMA":"310105","Location":7,"Alignment":3},"geometry":{"type":"Point","coordinates":[121.54722911027625,31.350477259799096]}},{"type":"Feature","properties":{"NAME":"普陀区","QUHUADAIMA":"310107","Location":1,"Alignment":3},"geometry":{"type":"Point","coordinates":[121.51967489229973,31.380321494458535]}},{"type":"Feature","properties":{"NAME":"黄浦区","QUHUADAIMA":"310101","Location":8,"Alignment":2},"geometry":{"type":"Point","coordinates":[121.60780133049899,31.363402736061982]}},{"type":"Feature","properties":{"NAME":"杨浦区","QUHUADAIMA":"310110","Location":2,"Alignment":4},"geometry":{"type":"Point","coordinates":[121.6490501945846,31.391777411481577]}},{"type":"Feature","properties":{"NAME":"虹口区","QUHUADAIMA":"310109","Location":1,"Alignment":3},"geometry":{"type":"Point","coordinates":[121.63007772093356,31.395167631958802]}},{"type":"Feature","properties":{"NAME":"浦东新区","QUHUADAIMA":"310115","Location":9,"Alignment":1},"geometry":{"type":"Point","coordinates":[121.66921852384679,31.352524112925945]}}]}