{"type":"FeatureCollection","name":"点","features":[{"type":"Feature","properties":{"NAME":"济南市","QUHUADAIMA":"370100","Location":6,"Alignment":1},"geometry":{"type":"Point","coordinates":[117.24225455868401,36.782530691886144]}},{"type":"Feature","properties":{"NAME":"东营市","QUHUADAIMA":"370500","Location":4,"Alignment":3},"geometry":{"type":"Point","coordinates":[118.78306251629284,37.551604221158648]}},{"type":"Feature","properties":{"NAME":"菏泽市","QUHUADAIMA":"371700","Location":4,"Alignment":3},"geometry":{"type":"Point","coordinates":[115.6027563731728,35.369543707600911]}},{"type":"Feature","properties":{"NAME":"威海市","QUHUADAIMA":"371000","Location":8,"Alignment":2},"geometry":{"type":"Point","coordinates":[122.24346064576935,37.642285927702311]}},{"type":"Feature","properties":{"NAME":"烟台市","QUHUADAIMA":"370600","Location":4,"Alignment":3},"geometry":{"type":"Point","coordinates":[121.55462067644803,37.594163330312909]}},{"type":"Feature","properties":{"NAME":"滨州市","QUHUADAIMA":"371600","Location":4,"Alignment":3},"geometry":{"type":"Point","coordinates":[118.14525604702043,37.5089731157343]}},{"type":"Feature","properties":{"NAME":"德州市","QUHUADAIMA":"371400","Location":6,"Alignment":1},"geometry":{"type":"Point","coordinates":[116.43317297830168,37.573455818991739]}},{"type":"Feature","properties":{"NAME":"青岛市","QUHUADAIMA":"370200","Location":4,"Alignment":3},"geometry":{"type":"Point","coordinates":[120.50548384377774,36.195567531613236]}},{"type":"Feature","properties":{"NAME":"潍坊市","QUHUADAIMA":"370700","Location":4,"Alignment":3},"geometry":{"type":"Point","coordinates":[119.28529923201515,36.834357718807517]}},{"type":"Feature","properties":{"NAME":"淄博市","QUHUADAIMA":"370300","Location":8,"Alignment":2},"geometry":{"type":"Point","coordinates":[118.18113493709174,36.934808563467719]}},{"type":"Feature","properties":{"NAME":"泰安市","QUHUADAIMA":"370900","Location":4,"Alignment":3},"geometry":{"type":"Point","coordinates":[117.24528503514725,36.323452966166208]}},{"type":"Feature","properties":{"NAME":"聊城市","QUHUADAIMA":"371500","Location":4,"Alignment":3},"geometry":{"type":"Point","coordinates":[116.10745035188512,36.5857481870342]}},{"type":"Feature","properties":{"NAME":"日照市","QUHUADAIMA":"371100","Location":4,"Alignment":3},"geometry":{"type":"Point","coordinates":[119.67416243147176,35.523053449967009]}},{"type":"Feature","properties":{"NAME":"临沂市","QUHUADAIMA":"371300","Location":4,"Alignment":3},"geometry":{"type":"Point","coordinates":[118.47094042739705,35.18092493461895]}},{"type":"Feature","properties":{"NAME":"济宁市","QUHUADAIMA":"370800","Location":4,"Alignment":3},"geometry":{"type":"Point","coordinates":[116.71209978222105,35.543355370184123]}},{"type":"Feature","properties":{"NAME":"枣庄市","QUHUADAIMA":"370400","Location":2,"Alignment":2},"geometry":{"type":"Point","coordinates":[117.45427561523205,34.943146024776738]}}]}