{"type":"FeatureCollection","name":"点","features":[{"type":"Feature","properties":{"NAME":"安阳市","QUHUADAIMA":"410500","Location":4,"Alignment":3},"geometry":{"type":"Point","coordinates":[114.50947962651716,36.226735041572752]}},{"type":"Feature","properties":{"NAME":"鹤壁市","QUHUADAIMA":"410600","Location":7,"Alignment":2},"geometry":{"type":"Point","coordinates":[114.41510319301426,35.871237289121488]}},{"type":"Feature","properties":{"NAME":"濮阳市","QUHUADAIMA":"410900","Location":9,"Alignment":1},"geometry":{"type":"Point","coordinates":[115.14234557696095,35.895267081425644]}},{"type":"Feature","properties":{"NAME":"焦作市","QUHUADAIMA":"410800","Location":4,"Alignment":3},"geometry":{"type":"Point","coordinates":[113.36883507451621,35.351942761887265]}},{"type":"Feature","properties":{"NAME":"新乡市","QUHUADAIMA":"410700","Location":4,"Alignment":3},"geometry":{"type":"Point","coordinates":[114.04967355612126,35.432551776065075]}},{"type":"Feature","properties":{"NAME":"商丘市","QUHUADAIMA":"411400","Location":4,"Alignment":3},"geometry":{"type":"Point","coordinates":[115.78101257047216,34.545153151626486]}},{"type":"Feature","properties":{"NAME":"开封市","QUHUADAIMA":"410200","Location":6,"Alignment":1},"geometry":{"type":"Point","coordinates":[114.43293303184731,34.9274426610901]}},{"type":"Feature","properties":{"NAME":"许昌市","QUHUADAIMA":"411000","Location":4,"Alignment":3},"geometry":{"type":"Point","coordinates":[113.97087848887259,34.165010753774908]}},{"type":"Feature","properties":{"NAME":"三门峡市","QUHUADAIMA":"411200","Location":9,"Alignment":1},"geometry":{"type":"Point","coordinates":[111.32521170200387,34.903987187229639]}},{"type":"Feature","properties":{"NAME":"洛阳市","QUHUADAIMA":"410300","Location":4,"Alignment":3},"geometry":{"type":"Point","coordinates":[112.57266936147242,34.753344411542351]}},{"type":"Feature","properties":{"NAME":"漯河市","QUHUADAIMA":"411100","Location":4,"Alignment":3},"geometry":{"type":"Point","coordinates":[114.14109924675032,33.7118254671982]}},{"type":"Feature","properties":{"NAME":"周口市","QUHUADAIMA":"411600","Location":6,"Alignment":1},"geometry":{"type":"Point","coordinates":[114.81918387230397,33.757648386354653]}},{"type":"Feature","properties":{"NAME":"平顶山市","QUHUADAIMA":"410400","Location":4,"Alignment":3},"geometry":{"type":"Point","coordinates":[113.3143102329194,33.900102764260289]}},{"type":"Feature","properties":{"NAME":"信阳市","QUHUADAIMA":"411500","Location":6,"Alignment":1},"geometry":{"type":"Point","coordinates":[114.20682787152515,32.267112246128235]}},{"type":"Feature","properties":{"NAME":"驻马店市","QUHUADAIMA":"411700","Location":4,"Alignment":3},"geometry":{"type":"Point","coordinates":[114.15987863448457,33.106735985052218]}},{"type":"Feature","properties":{"NAME":"南阳市","QUHUADAIMA":"411300","Location":4,"Alignment":3},"geometry":{"type":"Point","coordinates":[112.65969870818823,33.124056778263984]}},{"type":"Feature","properties":{"NAME":"郑州市","QUHUADAIMA":"410100","Location":9,"Alignment":3},"geometry":{"type":"Point","coordinates":[113.74764403246454,34.876718112577855]}},{"type":"Feature","properties":{"NAME":"济源市","QUHUADAIMA":"419001","Location":4,"Alignment":3},"geometry":{"type":"Point","coordinates":[112.69324878386044,35.20641294068907]}}]}