{"type":"FeatureCollection","name":"点","features":[{"type":"Feature","properties":{"NAME":"随州市","QUHUADAIMA":"421300","Location":4,"Alignment":3},"geometry":{"type":"Point","coordinates":[113.50527594747969,31.820922681142147]}},{"type":"Feature","properties":{"NAME":"宜昌市","QUHUADAIMA":"420500","Location":4,"Alignment":3},"geometry":{"type":"Point","coordinates":[111.40670883923042,30.833209518829698]}},{"type":"Feature","properties":{"NAME":"襄阳市","QUHUADAIMA":"420600","Location":4,"Alignment":3},"geometry":{"type":"Point","coordinates":[112.2580157316103,32.139507414783836]}},{"type":"Feature","properties":{"NAME":"十堰市","QUHUADAIMA":"420300","Location":4,"Alignment":3},"geometry":{"type":"Point","coordinates":[110.91252943348117,32.78196069901751]}},{"type":"Feature","properties":{"NAME":"荆门市","QUHUADAIMA":"420800","Location":6,"Alignment":1},"geometry":{"type":"Point","coordinates":[112.32691390869688,31.16579946430609]}},{"type":"Feature","properties":{"NAME":"鄂州市","QUHUADAIMA":"420700","Location":8,"Alignment":2},"geometry":{"type":"Point","coordinates":[115.01859349512152,30.522985355293358]}},{"type":"Feature","properties":{"NAME":"黄石市","QUHUADAIMA":"420200","Location":8,"Alignment":2},"geometry":{"type":"Point","coordinates":[115.16013365261684,30.331487325097413]}},{"type":"Feature","properties":{"NAME":"黄冈市","QUHUADAIMA":"421100","Location":3,"Alignment":1},"geometry":{"type":"Point","coordinates":[115.00274234367016,30.564832443750461]}},{"type":"Feature","properties":{"NAME":"孝感市","QUHUADAIMA":"420900","Location":4,"Alignment":3},"geometry":{"type":"Point","coordinates":[114.07573841908217,31.051486996682865]}},{"type":"Feature","properties":{"NAME":"咸宁市","QUHUADAIMA":"421200","Location":4,"Alignment":3},"geometry":{"type":"Point","coordinates":[114.44514015050238,29.973440164523151]}},{"type":"Feature","properties":{"NAME":"荆州市","QUHUADAIMA":"421000","Location":8,"Alignment":2},"geometry":{"type":"Point","coordinates":[112.36266837217086,30.465762983127757]}},{"type":"Feature","properties":{"NAME":"潜江市","QUHUADAIMA":"429005","Location":7,"Alignment":2},"geometry":{"type":"Point","coordinates":[113.0252510259001,30.549343991562253]}},{"type":"Feature","properties":{"NAME":"天门市","QUHUADAIMA":"429006","Location":6,"Alignment":1},"geometry":{"type":"Point","coordinates":[113.28968769043134,30.78251941727564]}},{"type":"Feature","properties":{"NAME":"仙桃市","QUHUADAIMA":"429004","Location":8,"Alignment":2},"geometry":{"type":"Point","coordinates":[113.57074043470659,30.494470620443789]}},{"type":"Feature","properties":{"NAME":"武汉市","QUHUADAIMA":"420100","Location":6,"Alignment":1},"geometry":{"type":"Point","coordinates":[114.42752127306797,30.724456652495828]}},{"type":"Feature","properties":{"NAME":"神农架林区","QUHUADAIMA":"429021","Location":8,"Alignment":2},"geometry":{"type":"Point","coordinates":[110.79371343828714,31.87850650249441]}}]}