{"type":"FeatureCollection","name":"点","features":[{"type":"Feature","properties":{"NAME":"酒泉市","QUHUADAIMA":"620900","Location":6,"Alignment":1},"geometry":{"type":"Point","coordinates":[98.640041219744745,39.872761426653021]}},{"type":"Feature","properties":{"NAME":"陇南市","QUHUADAIMA":"621200","Location":3,"Alignment":1},"geometry":{"type":"Point","coordinates":[105.0495965238043,33.523594989742264]}},{"type":"Feature","properties":{"NAME":"嘉峪关市","QUHUADAIMA":"620200","Location":4,"Alignment":3},"geometry":{"type":"Point","coordinates":[98.418061573948165,39.903879127762067]}},{"type":"Feature","properties":{"NAME":"金昌市","QUHUADAIMA":"620300","Location":8,"Alignment":2},"geometry":{"type":"Point","coordinates":[102.31647326901849,38.630273382439185]}},{"type":"Feature","properties":{"NAME":"张掖市","QUHUADAIMA":"620700","Location":4,"Alignment":3},"geometry":{"type":"Point","coordinates":[100.58887769762535,39.06328747182009]}},{"type":"Feature","properties":{"NAME":"平凉市","QUHUADAIMA":"620800","Location":9,"Alignment":1},"geometry":{"type":"Point","coordinates":[106.82634612214737,35.658935603417]}},{"type":"Feature","properties":{"NAME":"天水市","QUHUADAIMA":"620500","Location":4,"Alignment":3},"geometry":{"type":"Point","coordinates":[105.84866476702727,34.709899973105273]}},{"type":"Feature","properties":{"NAME":"武威市","QUHUADAIMA":"620600","Location":6,"Alignment":1},"geometry":{"type":"Point","coordinates":[102.76237467875315,38.05391261716445]}},{"type":"Feature","properties":{"NAME":"定西市","QUHUADAIMA":"621100","Location":7,"Alignment":3},"geometry":{"type":"Point","coordinates":[104.75205634454068,35.720250519120711]}},{"type":"Feature","properties":{"NAME":"庆阳市","QUHUADAIMA":"621000","Location":2,"Alignment":1},"geometry":{"type":"Point","coordinates":[107.76265553715612,35.868301432402149]}},{"type":"Feature","properties":{"NAME":"白银市","QUHUADAIMA":"620400","Location":3,"Alignment":1},"geometry":{"type":"Point","coordinates":[104.26363965771786,36.678069109292778]}},{"type":"Feature","properties":{"NAME":"兰州市","QUHUADAIMA":"620100","Location":6,"Alignment":1},"geometry":{"type":"Point","coordinates":[103.96028409203132,36.190527934308008]}}]}